TimeMS,Time,Min,Memory Usage,CPU Frequency,CPU Load,Wi-Fi RSSI Level,Screen Bright,Battery,Download,Upload,Quality
27,0,00:00:00,1824244,1144000,44,-61,3,79,456,17,360
10002,10,00:00:10,1812244,1586000,44,-67,3,79,456,17,360
20043,20,00:00:20,1828204,1586000,44,-63,3,79,456,17,360
30031,30,00:00:30,1794804,1586000,44,-63,3,79,456,17,360
40012,40,00:00:40,1816568,1586000,44,-65,3,79,456,17,360
50001,50,00:00:50,1781596,1586000,44,-60,3,79,456,17,360
60043,60,00:01:00,1823864,1144000,44,-60,3,79,456,17,360
70033,70,00:01:10,1806756,1586000,44,-60,3,79,456,17,360
80029,80,00:01:20,1821872,839000,44,-65,3,79,456,17,360
90018,90,00:01:30,1805176,1586000,44,-59,3,79,456,17,360
100017,100,00:01:40,1822904,1586000,44,-59,3,79,456,17,360
110005,110,00:01:50,1810224,1586000,44,-65,3,79,456,17,360
120007,120,00:02:00,1790844,1586000,44,-63,3,79,456,17,360
130068,130,00:02:10,1818592,1586000,44,-63,3,79,456,17,360
140051,140,00:02:20,1843640,1586000,44,-66,3,79,456,17,360
150047,150,00:02:30,1816888,902000,44,-61,3,79,456,17,360
160037,160,00:02:40,1825108,1586000,44,-61,3,79,456,17,360
170040,170,00:02:50,1824324,1586000,44,-61,3,79,456,17,360
180021,180,00:03:00,1775696,1586000,44,-71,3,79,456,17,360
190014,190,00:03:10,1803452,1586000,44,-62,3,79,456,17,360
200012,200,00:03:20,1794920,1586000,44,-66,3,79,456,17,360
210056,210,00:03:30,1824520,1586000,44,-59,3,79,456,17,360
220052,220,00:03:40,1811024,1586000,44,-59,3,79,456,17,360
230010,230,00:03:50,1816344,1586000,44,-59,3,79,456,17,360
240045,240,00:04:00,1790760,1586000,44,-59,3,78,456,17,360
250046,250,00:04:10,1808476,1586000,44,-64,3,78,456,17,360
260039,260,00:04:20,1817076,1586000,44,-61,3,78,456,17,360
270036,270,00:04:30,1810524,1586000,44,-61,3,78,456,17,360
280029,280,00:04:40,1824372,1248000,44,-64,3,78,456,17,360
290022,290,00:04:50,1776328,1586000,44,-63,3,78,456,17,360
300016,300,00:05:00,1788184,1586000,44,-63,3,78,456,17,360
310054,310,00:05:10,1823772,1586000,44,-63,3,78,456,17,360
320047,320,00:05:20,1824416,1586000,44,-63,3,78,456,17,360
330041,330,00:05:30,1789292,1586000,44,-63,3,78,456,17,360
340049,340,00:05:40,1818152,1586000,44,-63,3,78,456,17,360
350040,350,00:05:50,1825828,1586000,44,-63,3,78,456,17,360
360036,360,00:06:00,1823748,1586000,44,-64,3,78,456,17,360
370032,370,00:06:10,1817264,1586000,44,-63,3,78,456,17,360
380023,380,00:06:20,1804912,1586000,44,-65,3,78,456,17,360
390016,390,00:06:30,1818348,1586000,44,-59,3,78,456,17,360
400054,400,00:06:40,1766668,1586000,44,-59,3,78,456,17,360
410044,410,00:06:50,1793616,1586000,44,-59,3,78,456,17,360
420037,420,00:07:00,1800960,1586000,44,-64,3,78,456,17,360
430033,430,00:07:10,1799400,1586000,44,-63,3,78,456,17,360
440021,440,00:07:20,1811224,1586000,44,-64,3,78,456,17,360
450061,450,00:07:30,1824848,1586000,44,-62,3,78,456,17,360
460050,460,00:07:40,1812060,1586000,44,-62,3,78,456,17,360
470046,470,00:07:50,1819640,1586000,44,-64,3,78,456,17,360
480041,480,00:08:00,1801984,1586000,44,-63,3,78,456,17,360
490033,490,00:08:10,1816588,1586000,44,-68,3,78,456,17,360
500026,500,00:08:20,1809756,1586000,44,-62,3,78,456,17,360
510018,510,00:08:30,1823932,1586000,44,-62,3,78,456,17,360
520061,520,00:08:40,1823564,1586000,44,-68,3,78,456,17,360
530053,530,00:08:50,1822748,1586000,44,-59,3,78,456,17,360
540047,540,00:09:00,1823732,1586000,44,-59,3,78,456,17,360
550052,550,00:09:10,1812472,1586000,44,-64,3,78,456,17,360
560053,560,00:09:20,1825748,1586000,44,-62,3,78,456,17,360
570050,570,00:09:30,1816508,1586000,44,-62,3,78,456,17,360
580044,580,00:09:40,1819196,1586000,44,-62,3,78,456,17,360
590028,590,00:09:50,1817832,1586000,44,-68,3,78,456,17,360
600024,600,00:10:00,1820744,1586000,44,-63,3,78,456,17,360
610067,610,00:10:10,1779260,1586000,44,-66,3,78,456,17,360
620063,620,00:10:20,1793148,1586000,44,-63,3,78,456,17,360
630052,630,00:10:30,1823932,1586000,44,-65,3,78,456,17,360
640045,640,00:10:40,1824180,1586000,44,-65,3,77,456,17,360
650038,650,00:10:50,1825748,1586000,44,-60,3,77,456,17,360
660032,660,00:11:00,1782564,1586000,44,-66,3,77,456,17,360
670035,670,00:11:10,1797880,1586000,44,-77,3,77,456,17,360
680024,680,00:11:20,1789200,1586000,44,-77,3,77,456,17,360
690065,690,00:11:30,1763264,1586000,44,-74,3,77,456,17,360
700049,700,00:11:40,1795556,1482000,44,-74,3,77,456,17,360
710047,710,00:11:50,1821956,1248000,44,-63,3,77,456,17,360
720033,720,00:12:00,1824160,1586000,44,-66,3,77,456,17,360
730021,730,00:12:10,1824360,1586000,44,-61,3,77,456,17,360
740056,740,00:12:20,1802808,546000,44,-65,3,77,456,17,360
750044,750,00:12:30,1826104,546000,44,-63,3,77,456,17,360
760031,760,00:12:40,1807904,1586000,44,-65,3,77,456,17,360
770071,770,00:12:50,1824720,546000,44,-63,3,77,456,17,360
780060,780,00:13:00,1815256,902000,44,-63,3,77,456,17,360
790060,790,00:13:10,1821960,902000,44,-62,142,77,28,3,360
800060,800,00:13:20,1813436,546000,44,-65,142,77,28,3,360
810060,810,00:13:30,1796604,839000,44,-63,142,77,28,3,360
820060,820,00:13:40,1814532,1586000,44,-66,142,77,28,3,360
830060,830,00:13:50,1796296,839000,44,-58,142,77,28,3,360
840060,840,00:14:00,1818272,839000,44,-58,142,77,28,3,360
850060,850,00:14:10,1829848,1586000,44,-66,142,77,28,3,360
860060,860,00:14:20,1825928,1586000,44,-59,142,77,28,3,360
870060,870,00:14:30,1797388,902000,44,-59,142,77,28,3,360
880060,880,00:14:40,1790340,1586000,44,-59,142,77,28,3,360
890060,890,00:14:50,1767716,902000,44,-59,142,77,28,3,360
900060,900,00:15:00,1826164,902000,44,-64,142,76,28,3,360
910060,910,00:15:10,1799488,546000,44,-60,142,76,28,3,360
920060,920,00:15:20,1785952,902000,44,-60,142,76,28,3,360
930060,930,00:15:30,1797636,757000,44,-60,142,76,28,3,360
940060,940,00:15:40,1821784,1014000,44,-69,142,76,28,3,360
950060,950,00:15:50,1813148,1144000,44,-60,142,76,28,3,360
960060,960,00:16:00,1824728,1248000,44,-60,142,76,28,3,360
970060,970,00:16:10,1803476,1248000,44,-64,142,76,28,3,360
980060,980,00:16:20,1818684,757000,44,-64,142,76,28,3,360
990060,990,00:16:30,1819144,902000,44,-63,142,76,28,3,360
1000060,1000,00:16:40,1820456,757000,44,-63,142,76,28,3,360
1010060,1010,00:16:50,1814844,1586000,44,-64,142,76,28,3,360
1020060,1020,00:17:00,1822688,1482000,44,-61,142,76,28,3,360
1030060,1030,00:17:10,1794524,1586000,44,-65,142,76,28,3,360
1040060,1040,00:17:20,1817464,1586000,44,-61,142,76,28,3,360
1050060,1050,00:17:30,1807880,1352000,44,-61,142,76,28,3,360
1060060,1060,00:17:40,1822420,1248000,44,-72,142,76,28,3,360
1070060,1070,00:17:50,1784924,902000,44,-62,142,76,28,3,360
1080060,1080,00:18:00,1778280,1586000,44,-62,142,76,28,3,360
1090060,1090,00:18:10,1800196,902000,44,-65,142,76,28,3,360
1100060,1100,00:18:20,1794244,902000,44,-63,142,76,28,3,360
1110060,1110,00:18:30,1804812,902000,44,-63,142,76,28,3,360
1120060,1120,00:18:40,1824960,902000,44,-65,142,76,28,3,360
1130060,1130,00:18:50,1793936,839000,44,-61,142,76,28,3,360
1140060,1140,00:19:00,1740756,839000,44,-66,142,76,28,3,360
1150060,1150,00:19:10,1730816,839000,44,-63,142,76,28,3,360
1160060,1160,00:19:20,1817856,757000,44,-63,142,76,28,3,360
1170060,1170,00:19:30,1796332,839000,44,-64,142,76,28,3,360
1180060,1180,00:19:40,1818792,676000,44,-62,142,76,28,3,360
1190060,1190,00:19:50,1803328,902000,44,-62,142,76,28,3,360
1200060,1200,00:20:00,1785368,1586000,44,-64,142,76,28,3,360
1210060,1210,00:20:10,1789072,902000,44,-61,142,76,28,3,360
1220060,1220,00:20:20,1821140,1248000,44,-61,142,75,28,3,360
1230060,1230,00:20:30,1807584,902000,44,-64,142,75,28,3,360
1240060,1240,00:20:40,1825252,757000,44,-63,142,75,28,3,360
1250060,1250,00:20:50,1805600,902000,44,-63,142,75,28,3,360
1260060,1260,00:21:00,1807344,546000,44,-67,142,75,28,3,360
1270060,1270,00:21:10,1782312,902000,44,-61,142,75,28,3,360
1280060,1280,00:21:20,1802652,902000,44,-61,142,75,28,3,360
1290060,1290,00:21:30,1819912,1586000,44,-65,142,75,28,3,360
1300060,1300,00:21:40,1825384,1586000,44,-56,142,75,28,3,360
1310060,1310,00:21:50,1792616,1482000,44,-64,142,75,28,3,360
1320060,1320,00:22:00,1825292,1482000,44,-63,142,75,28,3,360
1330060,1330,00:22:10,1760936,902000,44,-63,142,75,28,3,360
1340060,1340,00:22:20,1781180,1482000,44,-63,142,75,28,3,360
1350060,1350,00:22:30,1782388,1144000,44,-63,142,75,28,3,360
1360060,1360,00:22:40,1809312,839000,44,-64,142,75,28,3,360
1370060,1370,00:22:50,1803296,1014000,44,-61,142,75,28,3,360
1380060,1380,00:23:00,1825012,546000,44,-61,142,75,28,3,360
1390060,1390,00:23:10,1809288,902000,44,-61,142,75,28,3,360
1400060,1400,00:23:20,1795332,902000,44,-61,142,75,28,3,360
1410060,1410,00:23:30,1789376,1482000,44,-64,142,75,28,3,360
1420060,1420,00:23:40,1824680,839000,44,-62,142,75,28,3,360
1430060,1430,00:23:50,1795796,676000,44,-68,142,75,28,3,360
1440060,1440,00:24:00,1813188,546000,44,-68,142,75,28,3,360
1450060,1450,00:24:10,1739300,902000,44,-63,142,75,28,3,360
1460060,1460,00:24:20,1764324,1482000,44,-66,142,75,28,3,360
1470060,1470,00:24:30,1743368,546000,44,-61,142,75,28,3,360
1480060,1480,00:24:40,1816192,1586000,44,-64,142,75,28,3,360
1490060,1490,00:24:50,1773436,902000,44,-62,142,75,28,3,360
1500060,1500,00:25:00,1784976,1248000,44,-62,142,75,28,3,360
1510060,1510,00:25:10,1822884,1248000,44,-65,142,75,28,3,360
1520060,1520,00:25:20,1804148,676000,44,-63,142,75,28,3,360
1530060,1530,00:25:30,1798860,1248000,44,-68,142,75,28,3,360
1540060,1540,00:25:40,1804164,546000,44,-62,142,75,28,3,360
1550060,1550,00:25:50,1824972,676000,44,-66,142,75,28,3,360
1560060,1560,00:26:00,1825912,1586000,40,-64,255,74,841,12,360
1570060,1570,00:26:10,1812464,1482000,40,-63,255,74,841,12,360
1580060,1580,00:26:20,1825724,1586000,40,-64,255,74,841,12,360
1590060,1590,00:26:30,1800752,1586000,40,-63,255,74,841,12,360
1600060,1600,00:26:40,1786508,1586000,40,-63,255,74,841,12,360
1610060,1610,00:26:50,1824468,1586000,40,-64,255,74,841,12,360
1620060,1620,00:27:00,1808188,1586000,40,-59,255,74,841,12,360
1630060,1630,00:27:10,1818868,1586000,40,-59,255,74,841,12,360
1640060,1640,00:27:20,1825700,1586000,40,-59,255,74,841,12,360
1650060,1650,00:27:30,1815692,1586000,40,-59,255,74,841,12,360
1660060,1660,00:27:40,1780136,1586000,40,-59,255,74,841,12,360
1670060,1670,00:27:50,1824976,1586000,40,-59,255,74,841,12,360
1680060,1680,00:28:00,1824672,1586000,40,-59,255,74,841,12,360
1690060,1690,00:28:10,1820468,1586000,40,-64,255,74,841,12,360
1700060,1700,00:28:20,1801296,1586000,40,-62,255,74,841,12,360
1710060,1710,00:28:30,1803884,902000,40,-73,255,74,841,12,360
1720060,1720,00:28:40,1781020,1586000,40,-58,255,74,841,12,360
1730060,1730,00:28:50,1823168,1586000,40,-58,255,74,841,12,360
1740060,1740,00:29:00,1825396,1586000,40,-58,255,73,841,12,360
1750060,1750,00:29:10,1811168,1586000,40,-58,255,73,841,12,360
1760060,1760,00:29:20,1813676,1586000,40,-66,255,73,841,12,360
1770060,1770,00:29:30,1809940,1586000,40,-62,255,73,841,12,360
1780060,1780,00:29:40,1814312,1586000,40,-62,255,73,841,12,360
1790060,1790,00:29:50,1824228,1586000,40,-64,255,73,841,12,360
1800060,1800,00:30:00,1820236,1586000,40,-63,255,73,841,12,360
1810060,1810,00:30:10,1819460,1586000,40,-63,255,73,841,12,360
1820060,1820,00:30:20,1823572,902000,40,-64,255,73,841,12,360
1830060,1830,00:30:30,1815688,1586000,40,-63,255,73,841,12,360
1840060,1840,00:30:40,1817644,546000,40,-64,255,73,841,12,360
1850060,1850,00:30:50,1801300,1586000,40,-63,255,73,841,12,360
1860060,1860,00:31:00,1821220,1586000,40,-63,255,73,841,12,360
1870060,1870,00:31:10,1826152,1586000,40,-63,255,73,841,12,360
1880060,1880,00:31:20,1782304,1482000,40,-63,255,73,841,12,360
1890060,1890,00:31:30,1814816,1586000,40,-63,255,73,841,12,360
1900060,1900,00:31:40,1805320,1586000,40,-63,255,73,841,12,360
1910060,1910,00:31:50,1804296,1482000,40,-63,255,73,841,12,360
1920060,1920,00:32:00,1794652,1248000,40,-63,255,73,841,12,360
1930060,1930,00:32:10,1823332,839000,40,-63,255,73,841,12,360
1940060,1940,00:32:20,1793052,902000,40,-63,255,73,841,12,360
1950060,1950,00:32:30,1809272,902000,40,-64,255,73,841,12,360
1960060,1960,00:32:40,1792388,902000,40,-64,255,73,841,12,360
1970060,1970,00:32:50,1799192,902000,40,-61,255,73,841,12,360
1980060,1980,00:33:00,1802536,902000,40,-64,255,73,841,12,360
1990060,1990,00:33:10,1823552,676000,40,-58,255,73,841,12,360
2000060,2000,00:33:20,1806960,902000,40,-58,255,73,841,12,360
2010060,2010,00:33:30,1814476,676000,40,-64,255,73,841,12,360
2020060,2020,00:33:40,1812804,902000,40,-64,255,73,841,12,360
2030060,2030,00:33:50,1812044,902000,40,-63,255,73,841,12,360
2040060,2040,00:34:00,1795016,839000,40,-64,255,73,841,12,360
2050060,2050,00:34:10,1805300,839000,40,-61,255,72,841,12,360
2060060,2060,00:34:20,1796876,902000,40,-65,255,72,841,12,360
2070060,2070,00:34:30,1809648,757000,40,-61,255,72,841,12,360
2080060,2080,00:34:40,1777308,546000,40,-64,255,72,841,12,360
2090060,2090,00:34:50,1823360,1248000,40,-64,255,72,841,12,360
2100060,2100,00:35:00,1816384,839000,40,-63,255,72,841,12,360
2110060,2110,00:35:10,1817384,1586000,40,-64,255,72,841,12,360
2120060,2120,00:35:20,1788864,676000,40,-63,255,72,841,12,360
2130060,2130,00:35:30,1818400,546000,40,-64,255,72,841,12,360
2140060,2140,00:35:40,1790672,1586000,40,-63,255,72,841,12,360
2150060,2150,00:35:50,1820484,1586000,40,-63,255,72,841,12,360
2160060,2160,00:36:00,1800936,1352000,40,-66,255,72,841,12,360
2170060,2170,00:36:10,1825424,1482000,40,-62,255,72,841,12,360
2180060,2180,00:36:20,1809428,1352000,40,-65,255,72,841,12,360
2190060,2190,00:36:30,1785916,1482000,40,-65,255,72,841,12,360
2200060,2200,00:36:40,1813740,1586000,40,-63,255,72,841,12,360
2210060,2210,00:36:50,1825284,1144000,40,-64,255,72,841,12,360
2220060,2220,00:37:00,1827996,1586000,40,-62,255,72,841,12,360
2230060,2230,00:37:10,1823092,1586000,40,-64,255,72,841,12,360
2240060,2240,00:37:20,1815184,1482000,40,-64,255,72,841,12,360
2250060,2250,00:37:30,1819084,757000,40,-77,255,72,841,12,360
2260060,2260,00:37:40,1825624,1586000,40,-61,255,72,841,12,360
2270060,2270,00:37:50,1821704,676000,40,-65,255,72,841,12,360
2280060,2280,00:38:00,1800448,902000,40,-65,255,72,841,12,360
2290060,2290,00:38:10,1821292,546000,40,-60,255,72,841,12,360
2300060,2300,00:38:20,1824916,1586000,40,-57,4,71,820,11,720
2310060,2310,00:38:30,1824984,1586000,40,-57,4,71,820,11,720
2320060,2320,00:38:40,1826428,902000,40,-57,4,71,820,11,720
2330060,2330,00:38:50,1818608,1352000,40,-57,4,71,820,11,720
2340060,2340,00:39:00,1781372,1352000,40,-57,4,71,820,11,720
2350060,2350,00:39:10,1807700,1014000,40,-57,4,71,820,11,720
2360060,2360,00:39:20,1801960,1482000,40,-57,4,71,820,11,720
2370060,2370,00:39:30,1819316,902000,40,-57,4,71,820,11,720
2380060,2380,00:39:40,1748760,1482000,40,-57,4,71,820,11,720
2390060,2390,00:39:50,1827760,1586000,40,-57,4,71,820,11,720
2400060,2400,00:40:00,1771156,1248000,40,-57,4,71,820,11,720
2410060,2410,00:40:10,1802232,1586000,40,-57,4,71,820,11,720
2420060,2420,00:40:20,1817648,902000,40,-64,4,71,820,11,720
2430060,2430,00:40:30,1793944,902000,40,-57,4,71,820,11,720
2440060,2440,00:40:40,1811088,676000,40,-67,4,71,820,11,720
2450060,2450,00:40:50,1813684,902000,40,-62,4,71,820,11,720
2460060,2460,00:41:00,1811620,902000,40,-62,4,71,820,11,720
2470060,2470,00:41:10,1812116,1586000,40,-66,4,71,820,11,720
2480060,2480,00:41:20,1805408,1144000,40,-60,4,71,820,11,720
2490060,2490,00:41:30,1825336,757000,40,-60,4,71,820,11,720
2500060,2500,00:41:40,1801820,1586000,40,-60,4,70,820,11,720
2510060,2510,00:41:50,1851388,1586000,40,-66,4,70,820,11,720
2520060,2520,00:42:00,1818476,1014000,40,-56,4,70,820,11,720
2530060,2530,00:42:10,1800992,1144000,40,-67,4,70,820,11,720
2540060,2540,00:42:20,1812612,676000,40,-56,4,70,820,11,720
2550060,2550,00:42:30,1767132,902000,40,-67,4,70,820,11,720
2560060,2560,00:42:40,1799556,1586000,40,-67,4,70,820,11,720
2570060,2570,00:42:50,1824976,839000,40,-60,4,70,820,11,720
2580060,2580,00:43:00,1821704,1248000,40,-69,4,70,820,11,720
2590060,2590,00:43:10,1821720,1248000,40,-55,4,70,820,11,720
2600060,2600,00:43:20,1796436,1586000,40,-55,4,70,820,11,720
2610060,2610,00:43:30,1818368,1586000,40,-55,4,70,820,11,720
2620060,2620,00:43:40,1823576,1586000,40,-55,4,70,820,11,720
2630060,2630,00:43:50,1825060,1248000,40,-55,4,70,820,11,720
2640060,2640,00:44:00,1774960,902000,40,-55,4,70,820,11,720
2650060,2650,00:44:10,1811524,1482000,40,-64,4,70,820,11,720
2660060,2660,00:44:20,1787304,902000,40,-63,4,70,820,11,720
2670060,2670,00:44:30,1818496,902000,40,-63,4,70,820,11,720
2680060,2680,00:44:40,1788208,757000,40,-67,4,70,820,11,720
2690060,2690,00:44:50,1817076,1014000,40,-67,4,70,820,11,720
2700060,2700,00:45:00,1794492,757000,40,-56,4,70,820,11,720
2710060,2710,00:45:10,1818908,902000,40,-56,4,70,820,11,720
2720060,2720,00:45:20,1824084,1482000,40,-56,4,70,820,11,720
2730060,2730,00:45:30,1810292,1144000,40,-56,4,70,820,11,720
2740060,2740,00:45:40,1824828,839000,40,-56,4,70,820,11,720
2750060,2750,00:45:50,1803624,1586000,40,-56,4,70,820,11,720
2760060,2760,00:46:00,1807144,676000,40,-56,4,70,820,11,720
2770060,2770,00:46:10,1802824,676000,40,-56,4,70,820,11,720
2780060,2780,00:46:20,1825024,902000,40,-56,4,70,820,11,720
2790060,2790,00:46:30,1813352,902000,40,-56,4,70,820,11,720
2800060,2800,00:46:40,1825256,902000,40,-56,4,69,820,11,720
2810060,2810,00:46:50,1807152,676000,40,-56,4,69,820,11,720
2820060,2820,00:47:00,1804784,676000,40,-56,4,69,820,11,720
2830060,2830,00:47:10,1800752,1586000,40,-56,4,69,820,11,720
2840060,2840,00:47:20,1820316,1248000,40,-65,4,69,820,11,720
2850060,2850,00:47:30,1800344,1482000,40,-63,4,69,820,11,720
2860060,2860,00:47:40,1812004,1482000,40,-63,4,69,820,11,720
2870060,2870,00:47:50,1822620,1586000,40,-63,4,69,820,11,720
2880060,2880,00:48:00,1799496,1014000,40,-63,4,69,820,11,720
2890060,2890,00:48:10,1824608,1586000,40,-63,4,69,820,11,720
2900060,2900,00:48:20,1818732,546000,40,-63,4,69,820,11,720
2910060,2910,00:48:30,1817024,1586000,40,-63,4,69,820,11,720
2920060,2920,00:48:40,1798592,902000,40,-63,4,69,820,11,720
2930060,2930,00:48:50,1824812,902000,40,-63,4,69,820,11,720
2940060,2940,00:49:00,1789392,546000,40,-64,4,69,820,11,720
2950060,2950,00:49:10,1811712,902000,40,-61,4,69,820,11,720
2960060,2960,00:49:20,1784596,902000,40,-70,4,69,820,11,720
2970060,2970,00:49:30,1807828,546000,40,-70,4,69,820,11,720
2980060,2980,00:49:40,1805708,1144000,40,-61,4,69,820,11,720
2990060,2990,00:49:50,1779044,1352000,40,-64,4,69,820,11,720
3000060,3000,00:50:00,1742516,676000,40,-63,4,69,820,11,720
3010060,3010,00:50:10,1753776,902000,40,-63,4,69,820,11,720
3020060,3020,00:50:20,1768940,902000,40,-63,4,69,820,11,720
3030060,3030,00:50:30,1816052,1014000,40,-63,4,69,820,11,720
3040060,3040,00:50:40,1812856,1586000,40,-63,4,69,820,11,720
3050060,3050,00:50:50,1822208,902000,40,-63,4,69,820,11,720
3060060,3060,00:51:00,1822716,1014000,40,-63,4,69,820,11,720
3070060,3070,00:51:10,1793696,546000,40,-63,4,69,820,11,720
3080060,3080,00:51:20,1823472,1248000,40,-64,4,69,820,11,720
3090060,3090,00:51:30,1807536,902000,40,-63,4,69,820,11,720
3100060,3100,00:51:40,1824048,1248000,40,-63,4,69,820,11,720
3110060,3110,00:51:50,1797584,1248000,40,-64,4,68,820,11,720
3120060,3120,00:52:00,1796280,1586000,40,-57,4,68,820,11,720
3130060,3130,00:52:10,1777240,1144000,40,-64,4,68,820,11,720
3140060,3140,00:52:20,1819472,1248000,40,-61,4,68,820,11,720
3150060,3150,00:52:30,1817856,1352000,40,-66,4,68,820,11,720
3160060,3160,00:52:40,1808320,1248000,40,-66,4,68,820,11,720
3170060,3170,00:52:50,1823692,1248000,40,-55,4,68,820,11,720
3180060,3180,00:53:00,1820580,1586000,40,-59,126,66,966,9,720
3190060,3190,00:53:10,1824912,1248000,40,-59,126,66,966,9,720
3200060,3200,00:53:20,1827128,1586000,40,-59,126,66,966,9,720
3210060,3210,00:53:30,1791924,1586000,40,-59,126,66,966,9,720
3220060,3220,00:53:40,1812620,902000,40,-59,126,66,966,9,720
3230060,3230,00:53:50,1853900,1248000,40,-59,126,66,966,9,720
3240060,3240,00:54:00,1802200,1586000,40,-71,126,66,966,9,720
3250060,3250,00:54:10,1806848,902000,40,-58,126,66,966,9,720
3260060,3260,00:54:20,1824152,757000,40,-66,126,66,966,9,720
3270060,3270,00:54:30,1802228,1586000,40,-63,126,66,966,9,720
3280060,3280,00:54:40,1809024,1482000,40,-63,126,66,966,9,720
3290060,3290,00:54:50,1824328,676000,40,-65,126,66,966,9,720
3300060,3300,00:55:00,1786552,839000,40,-57,126,66,966,9,720
3310060,3310,00:55:10,1781432,902000,40,-64,126,66,966,9,720
3320060,3320,00:55:20,1820784,1144000,40,-63,126,66,966,9,720
3330060,3330,00:55:30,1823280,902000,40,-63,126,66,966,9,720
3340060,3340,00:55:40,1803576,1482000,40,-64,126,66,966,9,720
3350060,3350,00:55:50,1775072,902000,40,-64,126,66,966,9,720
3360060,3360,00:56:00,1795624,902000,40,-60,126,66,966,9,720
3370060,3370,00:56:10,1812416,902000,40,-64,126,65,966,9,720
3380060,3380,00:56:20,1824484,902000,40,-63,126,65,966,9,720
3390060,3390,00:56:30,1826184,902000,40,-65,126,65,966,9,720
3400060,3400,00:56:40,1824136,1586000,40,-63,126,65,966,9,720
3410060,3410,00:56:50,1819576,1586000,40,-64,126,65,966,9,720
3420060,3420,00:57:00,1798004,1248000,40,-63,126,65,966,9,720
3430060,3430,00:57:10,1811720,1586000,40,-64,126,65,966,9,720
3440060,3440,00:57:20,1808216,1586000,40,-62,126,65,966,9,720
3450060,3450,00:57:30,1810840,1586000,40,-65,126,65,966,9,720
3460060,3460,00:57:40,1801244,1586000,40,-65,126,65,966,9,720
3470060,3470,00:57:50,1824880,1586000,40,-58,126,65,966,9,720
3480060,3480,00:58:00,1825180,1144000,40,-67,126,65,966,9,720
3490060,3490,00:58:10,1818120,902000,40,-60,126,65,966,9,720
3500060,3500,00:58:20,1818432,902000,40,-60,126,65,966,9,720
3510060,3510,00:58:30,1803916,902000,40,-65,126,65,966,9,720
3520060,3520,00:58:40,1825504,676000,40,-59,126,65,966,9,720
3530060,3530,00:58:50,1806596,1014000,40,-65,126,65,966,9,720
3540060,3540,00:59:00,1803820,839000,40,-62,126,65,966,9,720
3550060,3550,00:59:10,1824236,839000,40,-64,126,65,966,9,720
3560060,3560,00:59:20,1820236,546000,40,-63,126,65,966,9,720
3570060,3570,00:59:30,1818688,1144000,40,-63,126,65,966,9,720
3580060,3580,00:59:40,1770128,1586000,40,-64,126,65,966,9,720
3590060,3590,00:59:50,1798228,676000,40,-63,126,65,966,9,720
3600060,3600,01:00:00,1804660,1352000,40,-63,126,65,966,9,720
3610060,3610,01:00:10,1794152,902000,40,-67,126,65,966,9,720
3620060,3620,01:00:20,1795624,902000,40,-62,126,65,966,9,720
3630060,3630,01:00:30,1806500,1586000,40,-66,126,65,966,9,720
3640060,3640,01:00:40,1821300,902000,40,-66,126,65,966,9,720
3650060,3650,01:00:50,1783868,757000,40,-59,126,65,966,9,720
3660060,3660,01:01:00,1810072,902000,40,-64,126,65,966,9,720
3670060,3670,01:01:10,1810684,546000,40,-63,126,65,966,9,720
3680060,3680,01:01:20,1823896,1248000,40,-66,126,65,966,9,720
3690060,3690,01:01:30,1825660,1352000,40,-66,126,65,966,9,720
3700060,3700,01:01:40,1817920,1586000,40,-61,126,65,966,9,720
3710060,3710,01:01:50,1825368,1586000,40,-64,126,65,966,9,720
3720060,3720,01:02:00,1802260,1586000,40,-64,126,65,966,9,720
3730060,3730,01:02:10,1822952,902000,40,-59,126,64,966,9,720
3740060,3740,01:02:20,1777812,1014000,40,-68,126,64,966,9,720
3750060,3750,01:02:30,1805276,1586000,40,-62,126,64,966,9,720
3760060,3760,01:02:40,1824328,902000,40,-62,126,64,966,9,720
3770060,3770,01:02:50,1770440,902000,40,-65,126,64,966,9,720
3780060,3780,01:03:00,1806492,902000,40,-59,126,64,966,9,720
3790060,3790,01:03:10,1806384,757000,40,-64,126,64,966,9,720
3800060,3800,01:03:20,1810760,902000,40,-64,126,64,966,9,720
3810060,3810,01:03:30,1795000,839000,40,-59,126,64,966,9,720
3820060,3820,01:03:40,1817460,902000,40,-65,126,64,966,9,720
3830060,3830,01:03:50,1823360,902000,40,-63,126,64,966,9,720
3840060,3840,01:04:00,1820508,1482000,40,-63,126,64,966,9,720
3850060,3850,01:04:10,1847724,902000,40,-65,126,64,966,9,720
3860060,3860,01:04:20,1812636,1586000,40,-59,126,64,966,9,720
3870060,3870,01:04:30,1814708,1248000,40,-64,126,64,966,9,720
3880060,3880,01:04:40,1819452,1586000,40,-59,126,64,966,9,720
3890060,3890,01:04:50,1814180,1248000,40,-59,126,64,966,9,720
3900060,3900,01:05:00,1797952,546000,40,-66,126,64,966,9,720
3910060,3910,01:05:10,1819824,1586000,40,-63,126,64,966,9,720
3920060,3920,01:05:20,1803576,546000,40,-64,126,64,966,9,720
3930060,3930,01:05:30,1825556,1586000,44,-59,255,63,823,8,720
3940060,3940,01:05:40,1808472,1586000,44,-59,255,63,823,8,720
3950060,3950,01:05:50,1803296,1586000,44,-59,255,63,823,8,720
3960060,3960,01:06:00,1824180,1586000,44,-59,255,63,823,8,720
3970060,3970,01:06:10,1815328,1014000,44,-65,255,63,823,8,720
3980060,3980,01:06:20,1804940,1586000,44,-60,255,63,823,8,720
3990060,3990,01:06:30,1828324,1586000,44,-73,255,63,823,8,720
4000060,4000,01:06:40,1800812,902000,44,-73,255,63,823,8,720
4010060,4010,01:06:50,1789828,676000,44,-63,255,63,823,8,720
4020060,4020,01:07:00,1826112,757000,44,-63,255,63,823,8,720
4030060,4030,01:07:10,1806324,757000,44,-63,255,63,823,8,720
4040060,4040,01:07:20,1805932,902000,44,-65,255,63,823,8,720
4050060,4050,01:07:30,1824704,1014000,44,-62,255,63,823,8,720
4060060,4060,01:07:40,1811116,676000,44,-65,255,63,823,8,720
4070060,4070,01:07:50,1810824,839000,44,-65,255,63,823,8,720
4080060,4080,01:08:00,1802212,757000,44,-60,255,63,823,8,720
4090060,4090,01:08:10,1813708,546000,44,-64,255,63,823,8,720
4100060,4100,01:08:20,1818496,1144000,44,-64,255,63,823,8,720
4110060,4110,01:08:30,1768104,676000,44,-59,255,63,823,8,720
4120060,4120,01:08:40,1796840,902000,44,-65,255,63,823,8,720
4130060,4130,01:08:50,1798840,1014000,44,-65,255,63,823,8,720
4140060,4140,01:09:00,1825740,902000,44,-58,255,63,823,8,720
4150060,4150,01:09:10,1785440,757000,44,-64,255,62,823,8,720
4160060,4160,01:09:20,1797888,1482000,44,-64,255,62,823,8,720
4170060,4170,01:09:30,1818208,546000,44,-60,255,62,823,8,720
4180060,4180,01:09:40,1818596,1586000,44,-65,255,62,823,8,720
4190060,4190,01:09:50,1824656,1586000,44,-63,255,62,823,8,720
4200060,4200,01:10:00,1806228,1586000,44,-64,255,62,823,8,720
4210060,4210,01:10:10,1825040,1586000,44,-63,255,62,823,8,720
4220060,4220,01:10:20,1776140,1586000,44,-65,255,62,823,8,720
4230060,4230,01:10:30,1776368,1248000,44,-62,255,62,823,8,720
4240060,4240,01:10:40,1777932,839000,44,-64,255,62,823,8,720
4250060,4250,01:10:50,1779052,839000,44,-64,255,62,823,8,720
4260060,4260,01:11:00,1792428,902000,44,-63,255,62,823,8,720
4270060,4270,01:11:10,1811772,902000,44,-64,255,62,823,8,720
4280060,4280,01:11:20,1821676,1248000,44,-62,255,62,823,8,720
4290060,4290,01:11:30,1798432,1014000,44,-64,255,62,823,8,720
4300060,4300,01:11:40,1815480,1144000,44,-64,255,62,823,8,720
4310060,4310,01:11:50,1824668,1586000,44,-57,255,62,823,8,720
4320060,4320,01:12:00,1814528,902000,44,-64,255,62,823,8,720
4330060,4330,01:12:10,1812052,757000,44,-60,255,62,823,8,720
4340060,4340,01:12:20,1810336,839000,44,-64,255,62,823,8,720
4350060,4350,01:12:30,1788168,757000,44,-62,255,62,823,8,720
4360060,4360,01:12:40,1805344,902000,44,-62,255,62,823,8,720
4370060,4370,01:12:50,1825968,1586000,44,-64,255,62,823,8,720
4380060,4380,01:13:00,1797040,676000,44,-63,255,62,823,8,720
4390060,4390,01:13:10,1816492,902000,44,-64,255,62,823,8,720
4400060,4400,01:13:20,1789576,902000,44,-56,255,62,823,8,720
4410060,4410,01:13:30,1809356,902000,44,-64,255,62,823,8,720
4420060,4420,01:13:40,1782116,902000,44,-63,255,62,823,8,720
4430060,4430,01:13:50,1816880,1586000,44,-63,255,61,823,8,720
4440060,4440,01:14:00,1796196,902000,44,-64,255,61,823,8,720
4450060,4450,01:14:10,1808564,1586000,44,-63,255,61,823,8,720
4460060,4460,01:14:20,1810656,1352000,44,-64,255,61,823,8,720
4470060,4470,01:14:30,1819488,1586000,44,-63,255,61,823,8,720
4480060,4480,01:14:40,1814972,1586000,44,-63,255,61,823,8,720
4490060,4490,01:14:50,1824412,1248000,44,-64,255,61,823,8,720
4500060,4500,01:15:00,1825200,1248000,44,-57,255,61,823,8,720
4510060,4510,01:15:10,1811388,1352000,44,-57,255,61,823,8,720
4520060,4520,01:15:20,1811256,1248000,44,-64,255,61,823,8,720
4530060,4530,01:15:30,1819720,839000,44,-64,255,61,823,8,720
4540060,4540,01:15:40,1803816,902000,44,-63,255,61,823,8,720
4550060,4550,01:15:50,1813212,1248000,44,-64,255,61,823,8,720
4560060,4560,01:16:00,1804116,676000,44,-63,255,61,823,8,720
4570060,4570,01:16:10,1812492,757000,44,-64,255,61,823,8,720
4580060,4580,01:16:20,1795580,1014000,44,-59,255,61,823,8,720
4590060,4590,01:16:30,1789156,1248000,44,-65,255,61,823,8,720
4600060,4600,01:16:40,1817648,546000,44,-65,255,61,823,8,720
4610060,4610,01:16:50,1786348,546000,44,-63,255,61,823,8,720